LATITUDE,LONGITUDE,ADDRESS,REASON,TIME
-27.189539,152.9694482,"Callaghan Road, NARANGBA, Queensland, Australia",Flooded,2022/02/28 06:45:00+00
-27.0390994,153.059275,"Pumicestone Road, TOORBUL, Queensland, Australia",Flooded,2020/02/26 05:00:00+00
-27.1122218,153.04386,"Wallace Road, BEACHMERE, Queensland, Australia",Flooded,2022/03/03 03:50:00+00
-27.120011,152.9359512,"Petersen Road, MORAYFIELD, Queensland, Australia",Flooded,2022/02/28 09:00:00+00
-27.196621,153.0159398,"Lipscombe Road, DECEPTION BAY, Queensland, Australia",Flooded,2022/02/27 11:30:00+00
-27.2230676,152.9905455,"Old Gympie Road, DAKABIN, Queensland, Australia",Flooded,2020/02/26 05:00:00+00
-27.2503606,153.0366394,"Maryvale Road, MANGO HILL, Queensland, Australia",Flooded,2022/10/23 09:40:00+00
-27.2755143,153.0298269,"Dohles Rocks Road, GRIFFIN, Queensland, Australia",Flooded,2022/03/03 06:20:00+00
-27.1080037,152.9656344,"Buchanan Road, MORAYFIELD, Queensland, Australia",Flooded,2022/05/23 09:00:00+00
-27.1462708,152.871324,"Moorina Road, MOORINA, Queensland, Australia",Flooded,2022/05/11 13:20:00+00
-27.082977,152.8874535,"Stern Road, BELLMERE, Queensland, Australia",Flooded,2022/05/13 09:30:00+00
-26.9252772,152.7913615,"Mccabe Road, STANMORE, Queensland, Australia",Flooded,2022/07/23 19:50:00+00
-26.9601864,152.7011968,"Neurum Road, NEURUM, Queensland, Australia",Flooded,2022/05/13 18:45:00+00
-27.1341805,152.9602652,"Lindsay Road, MORAYFIELD, Queensland, Australia",Flooded,2020/02/26 05:00:00+00
-27.0914422,152.930334,"River Drive, BELLMERE, Queensland, Australia",Flooded,2020/02/26 05:00:00+00
-27.2267915,152.9827466,"Alma Road, DAKABIN, Queensland, Australia",Flooded,2020/02/26 05:00:00+00
-27.1163894,152.9035278,"Tinney Road, UPPER CABOOLTURE, Queensland, Australia",Flooded,2022/10/23 02:26:00+00
-27.0383407,153.0274725,"Hume Road, TOORBUL, Queensland, Australia",Flooded,2022/03/02 06:50:00+00
-27.3345958,152.8079644,"Kirk Road, CEDAR CREEK, Queensland, Australia",Flooded,2022/02/27 16:00:00+00
-27.1590936,152.9951961,"Old Bay Road, BURPENGARY EAST, Queensland, Australia",Flooded,2022/02/27 15:45:00+00
-27.0784397,152.8572343,"Jackson Road, BELLMERE, Queensland, Australia",Flooded,2022/05/23 09:30:00+00
-27.225702,152.9054596,"Shea Road, KURWONGBAH, Queensland, Australia",Flooded,2020/02/26 05:00:00+00
-27.068773,152.8583395,"W Lindsay Road, WAMURAN, Queensland, Australia",Flooded,2022/05/12 15:45:00+00
-27.2073014,152.9746465,"McPhail Road, NARANGBA, Queensland, Australia",Flooded,2021/12/01 06:45:00+00
-27.1798727,153.0209842,"Thompson Street, DECEPTION BAY, Queensland, Australia",Flooded,2022/02/27 21:00:00+00
-27.2267915,152.9827466,"Alma Road, DAKABIN, Queensland, Australia",Flooded,2020/02/26 05:00:00+00
-27.068437,152.9383396,"Tomlinson Road, CABOOLTURE, Queensland, Australia",Flooded,2022/05/12 04:00:00+00
-27.2310193,152.9981235,"Kerr Road, DAKABIN, Queensland, Australia",Flooded,2020/02/26 05:00:00+00
-27.2670199,153.0091296,"Dohles Rocks Road, MURRUMBA DOWNS, Queensland, Australia",Flooded,2022/03/03 06:05:00+00
-27.3021941,152.9939345,"Harvey Street, STRATHPINE, Queensland, Australia",Flooded,2022/03/03 07:00:00+00
-27.3380472,152.8206895,"Morrison Road, CEDAR CREEK, Queensland, Australia",Flooded,2022/02/27 16:00:00+00
-27.1666833,152.9634131,"Fernando Street, BURPENGARY, Queensland, Australia",Flooded,2020/02/26 05:00:00+00
-27.32604,152.864498,"Mount Samson Road, CLOSEBURN, Queensland, Australia",Flooded,2020/02/26 05:00:00+00
-27.143695,152.9445671,"Hauton Road, BURPENGARY, Queensland, Australia",Flooded,2022/02/26 10:15:00+00
-27.3170882,152.9424755,"Tattler  Street, WARNER, Queensland, Australia",Flooded,2020/02/26 07:30:00+00
-27.28226,152.9455459,"Gordons Crossing Road, JOYNER, Queensland, Australia",Flooded,2022/05/11 10:00:00+00
-27.264689,152.9704006,"Woonara Drive, PETRIE, Queensland, Australia",Flooded,2022/03/03 07:25:00+00
-27.3834929,152.8583288,"Days Road, SAMFORD VALLEY, Queensland, Australia",Flooded,2022/05/11 10:10:00+00
-27.2758173,152.9505011,"Youngs Crossing Road, JOYNER, Queensland, Australia",Flooded,2022/03/03 07:30:00+00
-27.1686192,152.817708,"Glengariff Way, KING SCRUB, Queensland, Australia",Flooded,2022/10/23 09:00:00+00
-27.1855083,152.8320047,"Fingerboard Road, KING SCRUB, Queensland, Australia",Flooded,2022/02/27 13:00:00+00
-27.3112773,152.8277364,"Foggs Road, MOUNT SAMSON, Queensland, Australia",Flooded,2022/02/27 01:00:00+00
-27.1952385,152.8236405,"Heathwood Street, DAYBORO, Queensland, Australia",Flooded,2020/02/26 05:00:00+00
-27.1449495,152.7628808,"Mount Brisbane Road, MOUNT PLEASANT, Queensland, Australia",Flooded,2020/02/26 05:00:00+00
-27.2313273,152.9712377,"Lakeside Road, KURWONGBAH, Queensland, Australia",Flooded,2020/02/26 05:00:00+00
-27.1695812,152.7567189,"Stratton Road, MOUNT PLEASANT, Queensland, Australia",Flooded,2022/05/18 00:00:00+00
-27.2002731,152.896992,"Neilson Road, KURWONGBAH, Queensland, Australia",Flooded,2022/03/03 10:00:00+00
-27.1868429,152.9034761,"Roberts Road, NARANGBA, Queensland, Australia",Flooded,2020/02/26 05:00:00+00
-27.2453742,152.9450493,"Scout Road, KURWONGBAH, Queensland, Australia",Flooded,2021/04/06 22:00:00+00
-27.2498205,152.9665747,"Torrens Road, KURWONGBAH, Queensland, Australia",Flooded,2022/02/27 11:30:00+00
-27.1961852,152.8242894,"Williams Street, DAYBORO, Queensland, Australia",Flooded,2022/02/26 07:00:00+00
-27.2019139,152.958858,"Main Street, NARANGBA, Queensland, Australia",Flooded,2020/02/26 05:00:00+00
-27.1719574,152.792551,"Mount Pleasant Road, MOUNT PLEASANT, Queensland, Australia",Flooded,2022/03/01 03:15:00+00
-27.1548656,152.8308931,"Ocean View Road, KING SCRUB, Queensland, Australia",Flooded,2020/02/26 05:00:00+00
-27.1695812,152.7567189,"Stratton Road, MOUNT PLEASANT, Queensland, Australia",Flooded,2022/05/16 07:30:00+00
-27.1449495,152.7628808,"Mount Brisbane Road, MOUNT PLEASANT, Queensland, Australia",Flooded,2022/05/15 00:30:00+00
-27.1443325,152.764149,"Courts Lane, MOUNT PLEASANT, Queensland, Australia",Flooded,2022/05/17 01:30:00+00
-27.2244823,152.7305935,"Laceys Creek Road, LACEYS CREEK, Queensland, Australia",Flooded,2022/10/23 15:50:00+00
-26.8557005,152.8114886,"Doyle Road, CEDARTON, Queensland, Australia",Flooded,2022/10/23 12:15:00+00
-27.2244823,152.7305935,"Laceys Creek Road, LACEYS CREEK, Queensland, Australia",Flooded,2022/05/12 16:00:00+00
-27.201892,152.724987,"Wirth Road, LACEYS CREEK, Queensland, Australia",Flooded,2022/10/23 16:10:00+00
-27.0410453,152.9967399,"Pumicestone Road, CABOOLTURE, Queensland, Australia",Flooded,2022/02/26 22:45:00+00
-27.0907683,152.902316,"Bellmere Road, BELLMERE, Queensland, Australia",Flooded,2022/02/26 07:45:00+00
-27.2867608,152.9885679,"Paisley Drive, LAWNTON, Queensland, Australia",Flooded,2022/03/03 07:00:00+00
-27.1922388,152.8181294,"McKenzie Street, DAYBORO, Queensland, Australia",Flooded,2020/02/26 05:00:00+00
-27.2218666,153.1056152,"Klingner Road, REDCLIFFE, Queensland, Australia",Flooded,2020/02/26 05:00:00+00
-27.190054,152.745271,"Costelloe Road, LACEYS CREEK, Queensland, Australia",Flooded,2022/10/23 16:30:00+00
-27.227461,153.110196,"Mcnaughton Street, REDCLIFFE, Queensland, Australia",Flooded,2020/02/26 05:00:00+00
-27.2230676,152.9905455,"Old Gympie Road, DAKABIN, Queensland, Australia",Flooded,2020/02/26 05:00:00+00
-27.239345,153.0460105,"Richard Road, MANGO HILL, Queensland, Australia",Flooded,2020/02/26 05:00:00+00
-27.2207514,153.089928,"Klingner Road, KIPPA-RING, Queensland, Australia",Flooded,2020/02/26 05:00:00+00
-27.2460624,153.0909777,"Maine Road, CLONTARF, Queensland, Australia",Flooded,2020/02/26 05:00:00+00
-27.2487886,153.080531,"Silcock Street, CLONTARF, Queensland, Australia",Flooded,2022/03/03 01:30:00+00
-27.2806902,153.0223572,"Wagner Road, GRIFFIN, Queensland, Australia",Flooded,2022/03/03 06:10:00+00
-27.1228936,152.9711936,"Grogan Road, MORAYFIELD, Queensland, Australia",Flooded,2022/02/27 15:00:00+00
-27.0457518,152.8135924,"Whiting Road, WAMURAN BASIN, Queensland, Australia",Flooded,2020/02/26 05:00:00+00
-27.1926165,153.0296279,"Maine Terrace, DECEPTION BAY, Queensland, Australia",Flooded,2020/02/26 05:00:00+00
-27.2871657,152.8584907,"Winn Road, MOUNT SAMSON, Queensland, Australia",Flooded,2022/02/27 00:40:00+00
-27.0876009,152.9936031,"Hickey Road, CABOOLTURE, Queensland, Australia",Flooded,2020/02/26 05:00:00+00
-27.0586598,152.9665746,"Male Road, CABOOLTURE, Queensland, Australia",Flooded,2022/02/26 22:30:00+00
-27.0380299,152.8389368,"R Williams Road, WAMURAN, Queensland, Australia",Flooded,2022/05/12 15:45:00+00
-26.9867048,152.8905842,"Scurr Road, WAMURAN, Queensland, Australia",Flooded,2022/05/12 12:00:00+00
-27.0054282,152.8889379,"Powell Road, WAMURAN, Queensland, Australia",Flooded,2022/05/14 05:00:00+00
-27.2115629,152.90384,"Theodore Road, KURWONGBAH, Queensland, Australia",Flooded,2020/02/26 05:00:00+00
-27.1548829,152.9680287,"Station Road, BURPENGARY, Queensland, Australia",Flooded,2020/02/26 05:00:00+00
-27.0743586,152.9576436,"Tallon Street, CABOOLTURE, Queensland, Australia",Flooded,2020/02/26 05:00:00+00
-27.1700852,152.8670451,"Moorina Road , NARANGBA, Queensland, Australia",Flooded,2022/10/23 16:00:00+00
-27.1053809,152.9476706,"Underpass Road, MORAYFIELD, Queensland, Australia",Flooded,2022/10/23 13:00:00+00
-27.0142293,152.8970352,"King Road, WAMURAN, Queensland, Australia",Flooded,2022/05/13 16:00:00+00
-27.0054282,152.8889379,"Powell Road, WAMURAN, Queensland, Australia",Flooded,2022/05/13 16:00:00+00
-27.0397794,152.9173354,"Markwell Road, CABOOLTURE, Queensland, Australia",Flooded,2020/02/26 05:00:00+00
-27.2267915,152.9827466,"Alma Road, DAKABIN, Queensland, Australia",Flooded,2020/02/26 05:00:00+00
-27.0861488,152.9612305,"William Street, CABOOLTURE, Queensland, Australia",Flooded,2022/02/27 18:15:00+00
-27.0789606,152.9587523,"McKean Street, CABOOLTURE, Queensland, Australia",Flooded,2020/02/26 05:00:00+00
-27.0823955,152.9810412,"Aerodome Road, CABOOLTURE, Queensland, Australia",Flooded,2020/02/26 05:00:00+00
-27.2078452,152.8043509,"Glover Road, DAYBORO, Queensland, Australia",Flooded,2022/10/25 03:50:00+00
-27.0874357,152.9449392,"Stringfellow Road, CABOOLTURE, Queensland, Australia",Flooded,2022/05/15 00:45:00+00
-27.0746536,153.1628789,"Kangaroo Avenue, BONGAREE, Queensland, Australia",Flooded,2022/02/27 15:00:00+00
-27.2562724,152.9246284,"Whiteside Road, WHITESIDE, Queensland, Australia",Flooded,2022/05/14 22:30:00+00
-27.025734,152.9605268,"Mansfield Road, ELIMBAH, Queensland, Australia",Flooded,2022/02/26 23:45:00+00
-27.2917891,152.8333281,"Basin Road, SAMSONVALE, Queensland, Australia",Flooded,2022/02/27 18:00:00+00
-27.0459024,153.0500048,"Volz Road, TOORBUL, Queensland, Australia",Flooded,2020/02/26 05:00:00+00
-27.3791087,152.7754445,"Mount Nebo Road, MOUNT NEBO, Queensland, Australia",Flooded,2020/02/26 05:00:00+00
-27.0986124,152.9399977,"Macadamia Street, CABOOLTURE SOUTH, Queensland, Australia",Flooded,2022/02/26 22:15:00+00
-27.1625158,152.9648193,"Henderson Road, BURPENGARY, Queensland, Australia",Flooded,2020/02/26 05:00:00+00
-27.1608227,152.9405775,"Rowley Road, BURPENGARY, Queensland, Australia",Flooded,2020/02/26 05:00:00+00
-27.0843083,153.0434226,"Browns Road, NINGI, Queensland, Australia",Flooded,2022/03/01 01:15:00+00
-27.036192,152.97156,"Morris Road, ELIMBAH, Queensland, Australia",Flooded,2020/02/26 05:00:00+00
-27.1822929,152.9069045,"Raynbird Road, NARANGBA, Queensland, Australia",Flooded,2020/02/26 05:00:00+00
-26.990435,152.9369856,"McDougall Road, ELIMBAH, Queensland, Australia",Flooded,2022/03/03 23:15:00+00
-26.9509364,152.7536962,"Neurum Road, WOODFORD, Queensland, Australia",Flooded,2022/05/12 07:00:00+00
-27.1235649,152.8579426,"Caboolture River Road, ROCKSBERG, Queensland, Australia",Flooded,2022/10/23 06:25:00+00
-27.0987994,153.0764091,"Payne Drive, BEACHMERE, Queensland, Australia",Flooded,2022/03/03 03:50:00+00
-27.1275159,152.9509206,"Clark Road, MORAYFIELD, Queensland, Australia",Flooded,2022/05/13 03:30:00+00
-27.189539,152.9694482,"Callaghan Road, NARANGBA, Queensland, Australia",Flooded,2022/02/28 06:45:00+00
-27.1517908,152.958622,"O'Brien Road, BURPENGARY, Queensland, Australia",Flooded,2022/02/27 15:45:00+00
-27.2251831,152.9417217,"Denham Road, KURWONGBAH, Queensland, Australia",Flooded,2020/02/26 05:00:00+00
-27.2312953,152.9449656,"Margaret Road, KURWONGBAH, Queensland, Australia",Flooded,2020/02/26 05:00:00+00
-27.208405,152.9285079,"Eric McSweeney Court, KURWONGBAH, Queensland, Australia",Flooded,2022/05/13 03:15:00+00
-27.120011,152.9359512,"Petersen Road, MORAYFIELD, Queensland, Australia",Flooded,2022/02/28 09:00:00+00
-27.2532916,152.7798158,"Hawkins Road, KOBBLE CREEK, Queensland, Australia",Flooded,2022/02/28 06:00:00+00
-27.1416456,153.0022004,"Uhlmann Road, BURPENGARY EAST, Queensland, Australia",Flooded,2020/02/26 05:00:00+00
-27.0941568,152.9457944,"John Street, CABOOLTURE SOUTH, Queensland, Australia",Flooded,2020/02/26 05:00:00+00
-27.3640404,152.9451386,"Dugandan Road, BUNYA, Queensland, Australia",Flooded,2022/10/23 22:30:00+00
-27.0528065,152.9707434,"Flowers Road, CABOOLTURE, Queensland, Australia",Flooded,2022/05/13 15:00:00+00
-27.2098727,152.9379826,"Browns Road, KURWONGBAH, Queensland, Australia",Flooded,2022/05/12 03:15:00+00
-27.0761259,153.1648985,"Cotterill Avenue, BONGAREE, Queensland, Australia",Flooded,2020/02/26 05:00:00+00
-27.03645,153.1334117,"White Patch Esplanade, BANKSIA BEACH, Queensland, Australia",Flooded,2022/03/03 18:30:00+00
-27.3458225,152.9409557,"Bunya Pine Court, EATONS HILL, Queensland, Australia",Flooded,2020/02/26 05:00:00+00
-27.2690974,153.0298322,"Henry Road, GRIFFIN, Queensland, Australia",Flooded,2022/10/24 21:00:00+00
-27.2606506,152.9368242,"Vores Road, WHITESIDE, Queensland, Australia",Flooded,2022/02/28 09:30:00+00
-27.3660116,152.930272,"Bunya Road, BUNYA, Queensland, Australia",Flooded,2020/02/26 05:00:00+00
-27.0582093,153.1465199,"Bellara Street, BELLARA, Queensland, Australia",Flooded,2020/02/26 05:00:00+00
-27.319894,152.980726,"Leitchs Road Pedestrian Bridge, BRENDALE, Queensland, Australia",Flooded,2023/05/18 20:30:00+00
-27.2172717,152.943223,"Forbes Road, KURWONGBAH, Queensland, Australia",Flooded,2022/05/14 06:30:00+00
-27.0706775,152.9038342,"Wades Road, BELLMERE, Queensland, Australia",Flooded,2022/05/11 19:00:00+00
-27.0743496,153.1615416,"Miramar Street, BONGAREE, Queensland, Australia",Flooded,2020/02/26 05:00:00+00
-26.9484858,152.787216,"Golf Course Road, WOODFORD, Queensland, Australia",Flooded,2022/05/14 11:00:00+00
-27.0147237,152.7525527,"Delaney Creek Road, DELANEYS CREEK, Queensland, Australia",Flooded,2022/05/14 09:30:00+00
-27.3977955,152.8696141,"Upper Camp Mountain Road, CAMP MOUNTAIN, Queensland, Australia",Flooded,2020/02/26 05:00:00+00
-27.1485401,152.7863176,"Clifford Road, MOUNT PLEASANT, Queensland, Australia",Flooded,2022/02/26 17:30:00+00
-26.9509364,152.7536962,"Neurum Road, WOODFORD, Queensland, Australia",Flooded,2022/05/15 12:00:00+00
-27.4011999,152.8515709,"Upper Wights Mountain  Road, WIGHTS MOUNTAIN, Queensland, Australia",Flooded,2020/02/26 05:00:00+00
-27.8540258,153.1961332,"Cedar Creek Road, CEDAR CREEK, Queensland, Australia",Flooded,2022/05/15 03:30:00+00
-27.0753663,153.1587263,"Clipper Street, BONGAREE, Queensland, Australia",Flooded,2020/02/26 05:00:00+00
-27.0659143,152.9620016,"Jensen Road, CABOOLTURE, Queensland, Australia",Flooded,2020/02/26 05:00:00+00
-27.0013578,152.9478981,"Rose Creek Road, ELIMBAH, Queensland, Australia",Flooded,2022/05/11 23:30:00+00
-27.252421,152.8078711,"Dales Road, KOBBLE CREEK, Queensland, Australia",Flooded,2022/05/16 03:00:00+00
-27.0870882,153.07064,"Peel Road, BEACHMERE, Queensland, Australia",Flooded,2022/03/03 03:50:00+00
-27.1235649,152.8579426,"Caboolture River Road, ROCKSBERG, Queensland, Australia",Flooded,2022/05/11 22:15:00+00
-27.09999,152.8370122,"McNamara Road, ROCKSBERG, Queensland, Australia",Flooded,2022/10/23 06:25:00+00
-27.0330921,152.9474874,"Hamilton Road, ELIMBAH, Queensland, Australia",Flooded,2022/05/23 21:15:00+00
-27.2289979,152.8152938,"Armstrong Creek Road, ARMSTRONG CREEK, Queensland, Australia",Flooded,2022/02/28 06:00:00+00
-26.9672949,152.7617834,"Kropp Road, WOODFORD, Queensland, Australia",Flooded,2022/02/27 04:00:00+00
-27.1703043,153.0210484,"Trinidad Terrace, DECEPTION BAY, Queensland, Australia",Flooded,2022/02/27 17:30:00+00
-27.319894,152.980726,"Leitchs Road, BRENDALE, Queensland, Australia",Flooded,2022/03/03 07:20:00+00
-27.0565995,152.9986431,"Old Toorbul Point Road, CABOOLTURE, Queensland, Australia",Flooded,2022/05/13 09:00:00+00
-27.285617,152.9415702,"Regent Street, JOYNER, Queensland, Australia",Flooded,2022/03/03 07:30:00+00
-27.2172717,152.943223,"Forbes Road, KURWONGBAH, Queensland, Australia",Flooded,2020/02/26 05:00:00+00
-27.2769402,152.9805211,"Leis Parade, LAWNTON, Queensland, Australia",Flooded,2022/03/03 07:00:00+00
-27.3661033,152.9642679,"Thiess Drive, ALBANY CREEK, Queensland, Australia",Flooded,2020/02/26 05:00:00+00
-27.3661033,152.9642679,"Thiess Drive, ALBANY CREEK, Queensland, Australia",Flooded,2020/02/26 05:00:00+00
-27.3867421,152.9681821,"Bunya Road, EVERTON HILLS, Queensland, Australia",Flooded,2020/02/26 05:00:00+00
-27.3685638,152.9760164,"Allamanda Crescent, ALBANY CREEK, Queensland, Australia",Flooded,2020/02/26 05:00:00+00
-27.3946076,152.842898,"Smiths Road, WIGHTS MOUNTAIN, Queensland, Australia",Flooded,2020/02/26 05:00:00+00
-27.3993385,152.9577378,"Grove Avenue, ARANA HILLS, Queensland, Australia",Flooded,2020/02/26 05:00:00+00
-27.2871657,152.8584907,"Winn Road, MOUNT SAMSON, Queensland, Australia",Flooded,2022/02/26 17:30:00+00
-26.8620246,152.7692563,"Bellthorpe Range Road, STANMORE, Queensland, Australia",Flooded,2022/05/15 05:30:00+00
-27.2206932,152.992353,"Goodwin Road, DAKABIN, Queensland, Australia",Flooded,2020/02/26 05:00:00+00
-27.2545446,153.0164268,"Brays Road, MURRUMBA DOWNS, Queensland, Australia",Flooded,2022/03/03 06:40:00+00
-27.0772472,153.158881,"Hall Avenue, BONGAREE, Queensland, Australia",Flooded,2020/02/26 05:00:00+00
-27.0746243,153.1608061,"Doomba Drive, BONGAREE, Queensland, Australia",Flooded,2020/02/26 05:00:00+00
-27.348928,152.9604853,"Faheys Road, ALBANY CREEK, Queensland, Australia",Flooded,2020/02/26 05:00:00+00
-27.2611135,152.9786351,"Yebri Street, KALLANGUR, Queensland, Australia",Flooded,2022/03/03 07:15:00+00
-27.0918767,153.1663951,"Spowers Street, BONGAREE, Queensland, Australia",Flooded,2020/02/26 05:00:00+00
-27.074873,153.1601059,"Koopa Street, BONGAREE, Queensland, Australia",Flooded,2020/02/26 05:00:00+00
-27.1975617,152.8252672,"Railway Street, DAYBORO, Queensland, Australia",Flooded,2022/05/15 01:00:00+00
-27.0756302,153.1580185,"Bestman Avenue, BONGAREE, Queensland, Australia",Flooded,2020/02/26 05:00:00+00
-27.0831477,152.9886318,"Pasturage Road, CABOOLTURE, Queensland, Australia",Flooded,2022/02/27 06:45:00+00
-27.0760191,153.1612793,"Paradise Parade, BONGAREE, Queensland, Australia",Flooded,2020/02/26 05:00:00+00
-27.190054,152.745271,"Costelloe Road, LACEYS CREEK, Queensland, Australia",Flooded,2022/10/23 16:40:00+00
-26.9961417,152.6864979,"Rasmussen Road, NEURUM, Queensland, Australia",Flooded,2022/10/23 19:30:00+00
-27.0831319,152.9088404,"Bells Lane, BELLMERE, Queensland, Australia",Flooded,2022/05/14 19:00:00+00
-27.2052289,152.9559409,"Mumford Road, NARANGBA, Queensland, Australia",Flooded,2022/02/25 16:30:00+00
-27.0752793,153.1632675,"Partridge Street, BONGAREE, Queensland, Australia",Flooded,2020/02/26 05:00:00+00
-27.0740863,153.1622391,"Cormorant Street, BONGAREE, Queensland, Australia",Flooded,2020/02/26 05:00:00+00
-27.0106943,152.7162754,"Wiseman Road, MOUNT DELANEY, Queensland, Australia",Flooded,2022/10/24 07:00:00+00
-27.2244823,152.7305935,"Laceys Creek Road, LACEYS CREEK, Queensland, Australia",Flooded,2022/10/23 15:45:00+00
-27.0505198,152.9375938,"Old Gympie Road, CABOOLTURE, Queensland, Australia",Flooded,2021/04/05 21:30:00+00
-26.9901519,152.7826344,"Buckingham Road, DELANEYS CREEK, Queensland, Australia",Flooded,2022/05/14 21:30:00+00
-27.074873,153.1601059,"Kingfisher Drive, BONGAREE, Queensland, Australia",Flooded,2020/02/26 05:00:00+00
-26.9701132,152.7739338,"Ironbark Drive, WOODFORD, Queensland, Australia",Flooded,2022/02/27 04:00:00+00
-27.3867855,152.7999317,"Dawson Creek Road, HIGHVALE, Queensland, Australia",Flooded,2022/05/15 15:00:00+00
-27.1659624,153.0189234,"Barbados Boulevard, DECEPTION BAY, Queensland, Australia",Flooded,2022/02/28 03:00:00+00
-27.1590936,152.9951961,"Old Bay Road, BURPENGARY EAST, Queensland, Australia",Flooded,2022/02/26 13:30:00+00
-27.1678091,153.0046354,"Old Bay Road, DECEPTION BAY, Queensland, Australia",Flooded,2022/10/23 12:40:00+00
-27.1889475,152.7915112,"Laceys Creek Road, ARMSTRONG CREEK, Queensland, Australia",Flooded,2022/02/26 17:45:00+00
-27.3067229,152.9773276,"Stanley Street, STRATHPINE, Queensland, Australia",Flooded,2022/03/03 07:00:00+00
-27.3638594,152.8761703,"Gibbons Road, SAMFORD VALLEY, Queensland, Australia",Flooded,2022/05/11 10:10:00+00
-27.1890944,152.834716,"Fingerboard Road, DAYBORO, Queensland, Australia",Flooded,2022/05/12 16:00:00+00
-27.3358206,152.8431796,"Gordons Road, CEDAR CREEK, Queensland, Australia",Flooded,2022/05/16 02:00:00+00
-27.0766364,153.161558,"Lyrebird Lane, BONGAREE, Queensland, Australia",Flooded,2020/02/26 05:00:00+00
-26.9050312,152.7219787,"Stony Creek Road, STONY CREEK, Queensland, Australia",Flooded,2022/10/23 09:25:00+00
-27.0922158,153.0698806,"Mynott Road, BEACHMERE, Queensland, Australia",Flooded,2022/03/03 03:50:00+00
-27.0751217,153.1594179,"Penguin Street, BONGAREE, Queensland, Australia",Flooded,2020/02/26 05:00:00+00
-27.0762065,153.1644052,"Sanderling Lane, BONGAREE, Queensland, Australia",Flooded,2020/02/26 05:00:00+00
-27.092139,152.9316005,"River Drive, CABOOLTURE SOUTH, Queensland, Australia",Flooded,2020/02/26 05:00:00+00
-27.0676066,152.9328541,"Smiths Road, CABOOLTURE, Queensland, Australia",Flooded,2020/02/26 05:00:00+00
-26.890571,152.7294178,"Fletcher Road, STONY CREEK, Queensland, Australia",Flooded,2022/10/23 09:35:00+00
-27.0125187,152.8736945,"Newlands Road, WAMURAN, Queensland, Australia",Flooded,2022/05/12 15:30:00+00
-27.0761547,152.8457278,"Jackson Road, WAMURAN, Queensland, Australia",Flooded,2022/05/23 06:30:00+00
-27.1625158,152.9648193,"Henderson Road, BURPENGARY, Queensland, Australia",Flooded,2020/02/26 05:00:00+00
-27.0565995,152.9986431,"Old Toorbul Point Road, CABOOLTURE, Queensland, Australia",Flooded,2020/02/26 05:00:00+00
-27.1461175,152.9615325,"Adsett Road, BURPENGARY, Queensland, Australia",Flooded,2022/02/27 13:30:00+00
-27.3918747,152.8656532,"Richards Road, CAMP MOUNTAIN, Queensland, Australia",Flooded,2022/02/27 23:00:00+00
-27.1768694,152.9582155,"New Settlement Road, NARANGBA, Queensland, Australia",Flooded,2022/02/27 10:00:00+00
-27.2404137,152.9927261,"Old Gympie Road, KALLANGUR, Queensland, Australia",Flooded,2022/03/03 07:00:00+00
-27.3892941,152.9714144,"Timms Road, EVERTON HILLS, Queensland, Australia",Flooded,2020/02/26 05:00:00+00
-27.1344481,153.044783,"Gillian Street, BEACHMERE, Queensland, Australia",Flooded,2022/03/03 11:30:00+00
-27.2403302,153.0355362,"Kinsellas Road East, MANGO HILL, Queensland, Australia",Flooded,2020/02/26 05:00:00+00
-27.2755143,153.0298269,"Dohles Rocks Road, GRIFFIN, Queensland, Australia",Flooded,2022/05/11 16:30:00+00
-27.1475457,152.9875624,"Fountain Road, BURPENGARY EAST, Queensland, Australia",Flooded,2022/05/13 09:30:00+00
-27.3977955,152.8696141,"Upper Camp Mountain Road, CAMP MOUNTAIN, Queensland, Australia",Flooded,2020/02/26 05:00:00+00
-27.0166037,152.9076283,"King Road, ELIMBAH, Queensland, Australia",Flooded,2022/05/12 05:00:00+00
-27.2758173,152.9505011,"Youngs Crossing Road, JOYNER, Queensland, Australia",Flooded,2022/03/03 07:30:00+00
-27.0565995,152.9986431,"Old Toorbul Point Road, CABOOLTURE, Queensland, Australia",Flooded,2022/05/11 09:27:00+00
-27.3836198,152.9690869,"John Street, EVERTON HILLS, Queensland, Australia",Flooded,2022/02/28 05:45:00+00
-27.1270317,152.9161679,"Mcloughlin Road, MORAYFIELD, Queensland, Australia",Flooded,2022/05/14 10:30:00+00
-27.0569614,152.9488902,"Dances Road, CABOOLTURE, Queensland, Australia",Flooded,2022/05/11 18:15:00+00
-27.2562724,152.9246284,"Whiteside Road, WHITESIDE, Queensland, Australia",Flooded,2022/02/28 09:45:00+00
-27.16793,152.981372,"Eastern Service Road, BURPENGARY EAST, Queensland, Australia",Flooded,2020/02/26 05:00:00+00
-26.9901519,152.7826344,"Buckingham Road, D'AGUILAR, Queensland, Australia",Flooded,2022/05/15 00:30:00+00
-27.1632293,152.9895581,"Twists Road, BURPENGARY EAST, Queensland, Australia",Flooded,2020/02/26 05:00:00+00
-26.9621191,152.7533857,"Walker Lane, WOODFORD, Queensland, Australia",Flooded,2022/05/11 05:45:00+00
-27.2443141,153.1015226,"Duffield Road, MARGATE, Queensland, Australia",Flooded,2020/02/26 05:00:00+00
-27.1678091,153.0046354,"Old Bay Road, DECEPTION BAY, Queensland, Australia",Flooded,2022/02/27 15:30:00+00
-27.0860114,152.9531048,"Esme Avenue, CABOOLTURE, Queensland, Australia",Flooded,2022/05/15 05:15:00+00
-27.2769402,152.9805211,"Leis Parade, LAWNTON, Queensland, Australia",Flooded,2022/03/03 19:00:00+00
-27.0009882,152.8010055,"Keliher Road, DELANEYS CREEK, Queensland, Australia",Flooded,2022/05/12 16:00:00+00
-27.3524028,152.9152091,"Bunya Road, DRAPER, Queensland, Australia",Flooded,2022/05/12 16:30:00+00
-27.0729111,153.1629431,"Goodwin Drive, BONGAREE, Queensland, Australia",Flooded,2020/02/26 05:00:00+00
-27.1678091,153.0046354,"Old Bay Road, DECEPTION BAY, Queensland, Australia",Flooded,2022/02/28 03:15:00+00
-27.0220854,152.8778178,"Ziviani Road, WAMURAN, Queensland, Australia",Flooded,2022/05/14 19:00:00+00
-27.2758173,152.9505011,"Youngs Crossing Road, JOYNER, Queensland, Australia",Flooded,2022/02/28 07:30:00+00
-27.3013417,152.9736529,"Samsonvale Road, STRATHPINE, Queensland, Australia",Flooded,2022/03/03 07:20:00+00
-27.1235649,152.8579426,"Caboolture River Road, ROCKSBERG, Queensland, Australia",Flooded,2022/10/23 06:20:00+00
-27.1454272,152.9995024,"Bassett Road, BURPENGARY EAST, Queensland, Australia",Flooded,2020/02/26 05:00:00+00
-27.2232488,152.7317743,"Dahls Crossing, LACEYS CREEK, Queensland, Australia",Flooded,2022/10/24 00:00:00+00
-27.0125187,152.8736945,"Newlands Road, WAMURAN, Queensland, Australia",Flooded,2022/05/12 15:30:00+00
-27.1996538,152.9725765,"Mackie Road, NARANGBA, Queensland, Australia",Flooded,2020/02/26 05:00:00+00
-27.0052047,152.7161675,"Dewhurts Road, MOUNT DELANEY, Queensland, Australia",Flooded,2022/10/23 12:00:00+00
-27.1454272,152.9995024,"Bassett Road, BURPENGARY EAST, Queensland, Australia",Flooded,2022/05/13 09:45:00+00
-27.2755143,153.0298269,"Dohles Rocks Road, GRIFFIN, Queensland, Australia",Flooded,2022/03/03 06:20:00+00
-27.1945391,152.7926356,"Strain Road, LACEYS CREEK, Queensland, Australia",Flooded,2022/05/18 07:00:00+00
-27.0200965,152.8325249,"J Lindsay Road, BRACALBA, Queensland, Australia",Flooded,2022/05/11 17:30:00+00
-27.3328381,152.9698793,"Cribb Road, BRENDALE, Queensland, Australia",Flooded,2022/03/03 07:30:00+00
-27.1099031,152.8859197,"Litherland Road, UPPER CABOOLTURE, Queensland, Australia",Flooded,2022/10/23 03:14:00+00
-27.3194764,152.851423,"Old Mount Samson Road, CLOSEBURN, Queensland, Australia",Flooded,2022/05/14 19:30:00+00
-27.1449495,152.7628808,"Mount Brisbane Road, MOUNT PLEASANT, Queensland, Australia",Flooded,2022/10/23 16:40:00+00
-27.1052205,152.830737,"W James Road, ROCKSBERG, Queensland, Australia",Flooded,2022/10/23 06:28:00+00
-27.047051,152.8262749,"Basin Road, WAMURAN BASIN, Queensland, Australia",Flooded,2022/05/21 23:45:00+00
-27.072991,152.9083996,"Richards Court, BELLMERE, Queensland, Australia",Flooded,2022/05/13 10:00:00+00
-27.0880352,152.9461128,"Centenary Lakes Road, CABOOLTURE, Queensland, Australia",Flooded,2022/10/23 06:31:00+00
-27.344337,152.8821174,"Hansen Road, YUGAR, Queensland, Australia",Flooded,2022/05/15 02:30:00+00
-27.2605782,152.8149727,"Pringles Road, KOBBLE CREEK, Queensland, Australia",Flooded,2022/05/15 01:00:00+00
-27.384299,152.8164716,"Ryder Road, HIGHVALE, Queensland, Australia",Flooded,2022/10/23 21:25:00+00
-27.0438588,152.8286573,"R Sampson Road, WAMURAN BASIN, Queensland, Australia",Flooded,2022/05/15 12:00:00+00
-27.1449495,152.7628808,"Mount Brisbane Road, MOUNT PLEASANT, Queensland, Australia",Flooded,2022/05/15 02:15:00+00
-27.1806232,152.7842158,"Baker Road, LACEYS CREEK, Queensland, Australia",Flooded,2022/05/16 23:00:00+00
-27.1052205,152.830737,"W James Road, ROCKSBERG, Queensland, Australia",Flooded,2022/10/23 06:26:00+00
-26.8577704,152.7533062,"Bellthorpe Range Road, BELLTHORPE, Queensland, Australia",Flooded,2022/05/15 11:45:00+00
-27.3964025,152.9728802,"Camelia Avenue, EVERTON HILLS, Queensland, Australia",Flooded,2022/02/28 05:30:00+00
-26.9974895,152.7638397,"Newman Lane, DELANEYS CREEK, Queensland, Australia",Flooded,2022/05/14 21:30:00+00
-27.1052205,152.830737,"W James Road, ROCKSBERG, Queensland, Australia",Flooded,2022/10/23 06:00:00+00
-26.989168,152.907838,"Twin View Road, ELIMBAH, Queensland, Australia",Flooded,2020/02/26 05:00:00+00
-27.1742391,152.9539951,"Burpengary Road, BURPENGARY, Queensland, Australia",Flooded,2020/02/26 05:00:00+00
-27.2289979,152.8152938,"Armstrong Creek Road, ARMSTRONG CREEK, Queensland, Australia",Flooded,2020/02/26 05:00:00+00
-27.8540258,153.1961332,"Cedar Creek Road, CEDAR CREEK, Queensland, Australia",Flooded,2022/05/12 23:45:00+00
-27.0465492,153.147589,"Sunderland Drive, BANKSIA BEACH, Queensland, Australia",Flooded,2020/02/26 05:00:00+00
-27.1655102,152.9614516,"Crendon Street, BURPENGARY, Queensland, Australia",Flooded,2020/02/26 05:00:00+00
-27.2148403,153.0442155,"McGahey Street, ROTHWELL, Queensland, Australia",Flooded,2022/02/27 23:00:00+00
-27.2867608,152.9885679,"Paisley Drive, LAWNTON, Queensland, Australia",Flooded,2020/02/26 05:00:00+00
-27.1259121,152.9815643,"Lund Road, BURPENGARY EAST, Queensland, Australia",Flooded,2020/02/26 05:00:00+00
-27.2806913,152.9663277,"Todds Road, LAWNTON, Queensland, Australia",Flooded,2022/05/11 05:00:00+00
-27.0554188,152.8402261,"Campbells Pocket Road, WAMURAN, Queensland, Australia",Flooded,2022/05/13 21:00:00+00
-27.0874383,153.1617553,"Toorbul Street, BONGAREE, Queensland, Australia",Flooded,2022/03/03 05:20:00+00
-27.1108742,152.9378812,"Walkers Road, MORAYFIELD, Queensland, Australia",Flooded,2022/02/26 16:30:00+00
-27.1034444,153.0734991,"Campbell Parade, BEACHMERE, Queensland, Australia",Flooded,2022/03/03 03:50:00+00
-27.0383407,153.0274725,"Hume Road, CABOOLTURE, Queensland, Australia",Flooded,2022/10/24 01:45:00+00
-27.2431606,152.9977985,"Brickworks Road, KALLANGUR, Queensland, Australia",Flooded,2022/03/03 07:00:00+00
-27.143695,152.9445671,"Hauton Road, MORAYFIELD, Queensland, Australia",Flooded,2020/02/26 05:00:00+00
-27.2800925,153.0168267,"Pine River Drive, MURRUMBA DOWNS, Queensland, Australia",Flooded,2022/03/03 06:45:00+00
-27.283565,152.997926,"Lawnton Pocket Road, LAWNTON, Queensland, Australia",Flooded,2022/03/03 07:00:00+00
-27.3867421,152.9681821,"Bunya Road, EVERTON HILLS, Queensland, Australia",Flooded,2020/02/26 05:00:00+00
-27.168598,152.9888559,"Creek Road, BURPENGARY EAST, Queensland, Australia",Flooded,2020/02/26 05:00:00+00
-27.0332579,153.1248998,"White Patch Esplanade, WHITE PATCH, Queensland, Australia",Flooded,2022/03/04 07:00:00+00
-27.1432344,152.9312593,"Oakey Flat Road, MORAYFIELD, Queensland, Australia",Flooded,2022/02/27 05:30:00+00
-27.1502269,152.9615463,"Dale Street, BURPENGARY, Queensland, Australia",Flooded,2022/02/27 13:30:00+00
-27.2608932,152.999525,"Dohles Rocks Road, KALLANGUR, Queensland, Australia",Flooded,2022/03/03 06:10:00+00
-27.2108003,152.8276778,"Juffs Road, DAYBORO, Queensland, Australia",Flooded,2020/02/26 05:00:00+00
-27.2806913,152.9663277,"Todds Road, LAWNTON, Queensland, Australia",Flooded,2022/03/03 06:15:00+00
-27.0147237,152.7525527,"Delaneys Creek Road, DELANEYS CREEK, Queensland, Australia",Flooded,2022/05/13 19:00:00+00
-27.289968,152.994629,"Bells Pocket Road, LAWNTON, Queensland, Australia",Flooded,2022/10/23 07:00:00+00
-27.201892,152.724987,"Wirth Road, LACEYS CREEK, Queensland, Australia",Flooded,2022/10/23 16:00:00+00
-27.2558779,153.001942,"Goodfellows Road, KALLANGUR, Queensland, Australia",Flooded,2022/03/03 06:40:00+00
-27.218442,152.9488992,"Moore Road, KURWONGBAH, Queensland, Australia",Flooded,2022/10/23 09:20:00+00
-27.1608227,152.9405775,"Rowley Road, BURPENGARY, Queensland, Australia",Flooded,2022/05/11 07:00:00+00
-27.1042211,152.8389944,"Best Road, ROCKSBERG, Queensland, Australia",Flooded,2023/05/16 20:00:00+00
-27.3974456,152.9688568,"Maba Court, EVERTON HILLS, Queensland, Australia",Flooded,2020/02/26 05:00:00+00
-26.8957496,152.8043739,"Cove Road, STANMORE, Queensland, Australia",Flooded,2022/10/24 17:30:00+00
-27.0513744,152.9116237,"Williams Road, MOODLU, Queensland, Australia",Flooded,2022/05/12 13:45:00+00
-27.2429571,152.9827977,"Marsden Road, KALLANGUR, Queensland, Australia",Flooded,2020/02/26 05:00:00+00
-27.3542132,152.8362929,"Mayfield Road, SAMFORD VALLEY, Queensland, Australia",Flooded,2022/03/22 10:15:00+00
-27.1922388,152.8181294,"McKenzie Street, DAYBORO, Queensland, Australia",Flooded,2020/02/26 05:00:00+00
-26.9057152,152.6931157,"Eaton Lane, STONY CREEK, Queensland, Australia",Flooded,2022/05/15 06:30:00+00
-27.0446927,152.8522336,"Waterside Drive, WAMURAN, Queensland, Australia",Flooded,2022/05/12 15:45:00+00
-27.2491908,152.9866309,"Sylvester Drive, KALLANGUR, Queensland, Australia",Flooded,2022/03/03 07:05:00+00
-26.9309928,152.7715763,"Old Cove Road, WOODFORD, Queensland, Australia",Flooded,2022/10/25 18:00:00+00
-27.0554188,152.8402261,"Campbells Pocket Road, WAMURAN, Queensland, Australia",Flooded,2022/05/14 20:45:00+00
-26.8957496,152.8043739,"Cove Road, STANMORE, Queensland, Australia",Flooded,2022/05/16 11:30:00+00
-27.2086422,152.8356761,"Strong Road, DAYBORO, Queensland, Australia",Flooded,2022/05/14 22:15:00+00
-27.1856076,152.9339604,"Oakey Flat Road, NARANGBA, Queensland, Australia",Flooded,2022/02/27 13:00:00+00
-27.1773268,152.985853,"Eastern Service Road, DECEPTION BAY, Queensland, Australia",Flooded,2020/02/26 05:00:00+00
-27.1043806,152.9535326,"Visentin Road, MORAYFIELD, Queensland, Australia",Flooded,2022/10/23 13:05:00+00
-27.1023254,152.9802122,"Trafalgar Drive, MORAYFIELD, Queensland, Australia",Flooded,2022/05/11 08:55:00+00
-26.8579654,152.8284775,"Commissioners Flat Road, COMMISSIONERS FLAT, Queensland, Australia",Flooded,2022/05/15 06:00:00+00
-27.3112959,152.9506408,"Kremzow Road, WARNER, Queensland, Australia",Flooded,2022/03/02 19:30:00+00
-27.2178456,153.0266114,"Chermside Road, MANGO HILL, Queensland, Australia",Flooded,2023/01/10 01:45:00+00
-27.1890944,152.834716,"Fingerboard Road, DAYBORO, Queensland, Australia",Flooded,2022/05/14 02:30:00+00
-27.0009252,152.9212522,"Old Gympie Road, ELIMBAH, Queensland, Australia",Flooded,2022/10/26 04:00:00+00
-27.2755143,153.0298269,"Dohles Rocks Road, GRIFFIN, Queensland, Australia",Flooded,2022/03/03 06:20:00+00
-27.1934338,152.9175735,"Browns Creek Road, NARANGBA, Queensland, Australia",Flooded,2022/10/23 09:41:00+00
-27.0460358,152.9055401,"Whittington Road, MOODLU, Queensland, Australia",Flooded,2022/10/22 16:07:00+00
-27.2244823,152.7305935,"Laceys Creek Road, LACEYS CREEK, Queensland, Australia",Flooded,2022/05/18 07:00:00+00
-27.1671066,152.8172157,"Bond Road, KING SCRUB, Queensland, Australia",Flooded,2022/10/23 09:00:00+00
-27.8540258,153.1961332,"Cedar Creek Road, CEDAR CREEK, Queensland, Australia",Flooded,2022/05/14 23:15:00+00
-27.1037573,152.8625552,"Old North Road, ROCKSBERG, Queensland, Australia",Flooded,2023/05/16 04:00:00+00
-27.344337,152.8821174,"Hansen Road, CLOSEBURN, Queensland, Australia",Flooded,2022/10/24 21:47:00+00
-27.2048861,152.8088279,"Juffs Road West, DAYBORO, Queensland, Australia",Flooded,2022/10/23 21:00:00+00
-27.8121774,153.1734284,"Curtis Road, CEDAR CREEK, Queensland, Australia",Flooded,2022/10/24 01:00:00+00
-26.9023319,152.7969565,"Cove Road, WOODFORD, Queensland, Australia",Flooded,2022/07/24 22:30:00+00
-27.2051284,152.8193591,"Laidlaw Street, DAYBORO, Queensland, Australia",Flooded,2022/02/26 17:00:00+00
-27.1110272,153.0641747,"Bishop Road, BEACHMERE, Queensland, Australia",Flooded,2022/03/03 00:45:00+00
-27.3358206,152.8431796,"Gordons Road, CEDAR CREEK, Queensland, Australia",Flooded,2022/10/23 22:00:00+00
-27.2133178,152.8099796,"Lees Crossing Road, DAYBORO, Queensland, Australia",Flooded,2022/10/25 20:30:00+00
-26.9023319,152.7969565,"Cove Road, WOODFORD, Queensland, Australia",Flooded,2022/10/24 17:09:00+00
-27.0405244,152.9458456,"McConachy Road, ELIMBAH, Queensland, Australia",Flooded,2022/05/13 09:15:00+00
-26.9933811,152.9077003,"Williams Road, ELIMBAH, Queensland, Australia",Flooded,2022/10/23 15:27:00+00
-26.9739771,152.7570869,"Batchelor Road, WOODFORD, Queensland, Australia",Flooded,2022/02/27 11:00:00+00
-27.2562724,152.9246284,"Whiteside Road, WHITESIDE, Queensland, Australia",Flooded,2022/02/28 09:45:00+00
-27.2379029,152.825677,"Kobble Creek Road, KOBBLE CREEK, Queensland, Australia",Flooded,2022/10/25 03:55:00+00
-27.2605782,152.8149727,"Pringles Road, KOBBLE CREEK, Queensland, Australia",Flooded,2022/05/23 09:45:00+00
-27.1254498,152.9823872,"Coach Road East, BURPENGARY EAST, Queensland, Australia",Flooded,2022/05/11 01:00:00+00
-27.1417913,152.9623056,"Gleeson Road, BURPENGARY, Queensland, Australia",Flooded,2022/02/26 10:00:00+00
-27.2605782,152.8149727,"Pringles Road, KOBBLE CREEK, Queensland, Australia",Flooded,2022/05/25 09:30:00+00
-27.1648693,153.0105552,"Blue Pacific Road, DECEPTION BAY, Queensland, Australia",Flooded,2022/10/23 09:50:00+00
-27.8540258,153.1961332,"Cedar Creek Road, CEDAR CREEK, Queensland, Australia",Flooded,2022/05/15 00:45:00+00
-27.2344211,153.0868779,"McDonnell Road, CLONTARF, Queensland, Australia",Flooded,2020/02/26 05:00:00+00
-27.201892,152.724987,"Wirth Road, LACEYS CREEK, Queensland, Australia",Flooded,2022/10/23 16:20:00+00
-27.0513744,152.9116237,"Williams Road, MOODLU, Queensland, Australia",Flooded,2022/10/23 04:00:00+00
-27.2431946,152.9504713,"Ski Road, KURWONGBAH, Queensland, Australia",Flooded,2022/10/23 03:25:00+00
-27.09999,152.8370122,"McNamara Road, ROCKSBERG, Queensland, Australia",Flooded,2022/10/23 06:20:00+00
-27.1626412,152.9459694,"Mathew Crescent, BURPENGARY, Queensland, Australia",Flooded,2020/02/26 05:00:00+00
-27.1789774,153.0293113,"Beach Road, DECEPTION BAY, Queensland, Australia",Flooded,2020/02/26 05:00:00+00
-27.1517908,152.958622,"O'Brien Road, BURPENGARY, Queensland, Australia",Flooded,2022/02/26 12:00:00+00
-27.3131347,152.9901662,"Mott Street, STRATHPINE, Queensland, Australia",Flooded,2023/09/04 07:00:00+00
-27.1485905,152.9025815,"Forest Hills Drive, MORAYFIELD, Queensland, Australia",Flooded,2020/02/26 05:00:00+00
-27.0983553,153.0714288,"Bellay Road, BEACHMERE, Queensland, Australia",Flooded,2022/03/03 03:45:00+00
-27.1108742,152.9378812,"Walker Road, MORAYFIELD, Queensland, Australia",Flooded,2022/02/26 16:30:00+00
-27.1923138,152.977482,"Viewland Drive, NARANGBA, Queensland, Australia",Flooded,2022/02/27 09:00:00+00
-27.2616164,152.9392983,"Grant Street, WHITESIDE, Queensland, Australia",Flooded,2020/02/26 05:00:00+00
-27.0573313,153.1464382,"Boronia Drive, BELLARA, Queensland, Australia",Flooded,2020/02/26 05:00:00+00
-27.1897459,152.9560901,"Burpengary Road, NARANGBA, Queensland, Australia",Flooded,2020/02/26 05:00:00+00
-27.1462708,152.871324,"Moorina Road, MOORINA, Queensland, Australia",Flooded,2022/02/27 01:15:00+00
-27.3258086,152.9614269,"Coorparoo Road, WARNER, Queensland, Australia",Flooded,2022/03/03 07:30:00+00
-27.2115995,152.9500593,"Boundary Road, KURWONGBAH, Queensland, Australia",Flooded,2020/02/26 05:00:00+00
-27.316768,152.976978,"Kremzow Road, BRENDALE, Queensland, Australia",Flooded,2022/03/03 07:30:00+00
-26.9939336,153.0149111,"Beerburrum-Donnybrook Road, ELIMBAH, Queensland, Australia",Flooded,2020/02/26 05:00:00+00
-27.1349377,153.0516387,"Biggs Avenue, BEACHMERE, Queensland, Australia",Flooded,2022/03/03 03:50:00+00
-27.1380584,153.0481652,"Kunde Street, BEACHMERE, Queensland, Australia",Flooded,2022/03/03 04:00:00+00
-27.1312057,153.0508431,"First Avenue, BEACHMERE, Queensland, Australia",Flooded,2022/03/03 03:50:00+00
-27.133056,153.0510767,"Second Avenue, BEACHMERE, Queensland, Australia",Flooded,2022/03/03 03:50:00+00
-27.2217242,152.9357561,"McCormack Road South, KURWONGBAH, Queensland, Australia",Flooded,2022/02/27 13:30:00+00
-27.2429571,152.9827977,"Marsden Road, KALLANGUR, Queensland, Australia",Flooded,2020/02/26 05:00:00+00
-27.190424,153.0323708,"Esplanade, DECEPTION BAY, Queensland, Australia",Flooded,2020/02/26 05:00:00+00
-27.0599396,152.9611253,"Ardrossan Road, CABOOLTURE, Queensland, Australia",Flooded,2020/02/26 05:00:00+00
-28.2303123,153.1350157,"Mt O'Reilly Road, SAMFORD VALLEY, Queensland, Australia",Flooded,2020/02/26 05:00:00+00
-27.2272454,153.1149736,"Redcliffe Parade, REDCLIFFE, Queensland, Australia",Flooded,2020/02/26 05:00:00+00
-27.2272454,153.1149736,"Redcliffe Parade, REDCLIFFE, Queensland, Australia",Flooded,2020/02/26 05:00:00+00
-27.1483499,152.8584831,"Mountain View Road, MOORINA, Queensland, Australia",Flooded,2022/05/11 12:00:00+00
-27.2917891,152.8333281,"Basin Road, MOUNT SAMSON, Queensland, Australia",Flooded,2020/02/26 05:00:00+00
-27.1326861,152.9936906,"Cobb Road, BURPENGARY EAST, Queensland, Australia",Flooded,2022/02/27 15:45:00+00
-27.1616199,152.9793557,"Bruce Highway Eastern Service Road, BURPENGARY EAST, Queensland, Australia",Flooded,2020/02/26 05:00:00+00
-27.2370053,152.9911463,"Glass House Circuit, KALLANGUR, Queensland, Australia",Flooded,2020/02/26 05:00:00+00
-27.189539,152.9694482,"Callaghan Road, NARANGBA, Queensland, Australia",Flooded,2020/02/26 05:00:00+00
-27.1689836,152.9690691,"Pitt Road, BURPENGARY, Queensland, Australia",Flooded,2020/02/26 05:00:00+00
-27.2690974,153.0298322,"Henry Road, GRIFFIN, Queensland, Australia",Flooded,2021/03/23 04:45:00+00
-27.1317211,152.9189537,"Adelong Court, MORAYFIELD, Queensland, Australia",Flooded,2020/02/26 05:00:00+00
-27.0494337,152.8859445,"Alexandra Parade, WAMURAN, Queensland, Australia",Flooded,2020/02/26 05:00:00+00
-27.2460624,153.0909777,"Maine Road, CLONTARF, Queensland, Australia",Flooded,2020/02/26 05:00:00+00
-27.2283792,153.1127648,"Creek Street, REDCLIFFE, Queensland, Australia",Flooded,2020/02/26 05:00:00+00
-26.9531817,152.78241,"George Street, WOODFORD, Queensland, Australia",Flooded,2020/02/26 05:00:00+00
-26.9701132,152.7739338,"Ironbark Road, WOODFORD, Queensland, Australia",Flooded,2020/02/26 05:00:00+00
-27.0390994,153.059275,"Pumicestone Rd , TOORBUL, Queensland, Australia",Flooded,2022/03/01 02:00:00+00
-27.0803294,152.8710266,"Old North Road, BELLMERE, Queensland, Australia",Flooded,2020/02/26 05:00:00+00
-27.1590936,152.9951961,"Old Bay Road, BURPENGARY EAST, Queensland, Australia",Flooded,2020/02/26 05:00:00+00
-27.1270317,152.9161679,"Mcloughlin Road, MORAYFIELD, Queensland, Australia",Flooded,2020/02/26 05:00:00+00
-27.1037573,152.8625552,"Old North Road, ROCKSBERG, Queensland, Australia",Flooded,2022/05/23 19:15:00+00
-27.3455088,152.9684103,"Alpina Court, ALBANY CREEK, Queensland, Australia",Flooded,2020/02/26 05:00:00+00
-27.2917891,152.8333281,"Basin Road, SAMSONVALE, Queensland, Australia",Flooded,2020/02/26 05:00:00+00
-27.3749174,152.925271,"Bergin Creek Road, BUNYA, Queensland, Australia",Flooded,2020/02/26 05:00:00+00
-27.2493165,152.8243577,"Boogala Court, KOBBLE CREEK, Queensland, Australia",Flooded,2020/02/26 05:00:00+00
-27.1080037,152.9656344,"Buchanan Road, MORAYFIELD, Queensland, Australia",Flooded,2020/02/26 05:00:00+00
-26.9755807,152.8160614,"Chambers Road, D'AGUILAR, Queensland, Australia",Flooded,2020/02/26 05:00:00+00
-26.9755807,152.8160614,"Chambers Road, D'AGUILAR, Queensland, Australia",Flooded,2020/02/26 05:00:00+00
-26.9755807,152.8160614,"Chambers Road, D'AGUILAR, Queensland, Australia",Flooded,2020/02/26 05:00:00+00
-27.1275159,152.9509206,"Clark Road, MORAYFIELD, Queensland, Australia",Flooded,2020/02/26 05:00:00+00
-27.168598,152.9888559,"Creek Road, BURPENGARY EAST, Queensland, Australia",Flooded,2020/02/26 05:00:00+00
-27.252421,152.8078711,"Dales Road, KOBBLE CREEK, Queensland, Australia",Flooded,2020/02/26 05:00:00+00
-27.3867855,152.7999317,"Dawson Creek Road, HIGHVALE, Queensland, Australia",Flooded,2020/02/26 05:00:00+00
-27.2651164,152.9664976,"Dayboro Service Road, PETRIE, Queensland, Australia",Flooded,2020/02/26 05:00:00+00
-27.3834929,152.8583288,"Days Road, SAMFORD VALLEY, Queensland, Australia",Flooded,2020/02/26 05:00:00+00
-27.0125638,152.7153363,"Delaney Creek Road, MOUNT DELANEY, Queensland, Australia",Flooded,2020/02/26 05:00:00+00
-27.1321088,152.8614975,"F Lindsay Road, ROCKSBERG, Queensland, Australia",Flooded,2020/02/26 05:00:00+00
-27.1321088,152.8614975,"F Lindsay Road, MOORINA, Queensland, Australia",Flooded,2020/02/26 05:00:00+00
-27.039427,152.8775632,"Franks Lane, WAMURAN, Queensland, Australia",Flooded,2020/02/26 05:00:00+00
-27.0548335,152.9156832,"Greening Road, MOODLU, Queensland, Australia",Flooded,2020/02/26 05:00:00+00
-27.3420918,152.8320311,"Halls Road, CEDAR CREEK, Queensland, Australia",Flooded,2020/02/26 05:00:00+00
-27.0330921,152.9474874,"Hamilton Road, ELIMBAH, Queensland, Australia",Flooded,2020/02/26 05:00:00+00
-27.1589352,152.7808594,"Henzell Road, MOUNT PLEASANT, Queensland, Australia",Flooded,2022/03/01 18:45:00+00
-26.9625303,152.768457,"Kauri Court, WOODFORD, Queensland, Australia",Flooded,2020/02/26 05:00:00+00
-27.2379029,152.825677,"Kobble Creek Road, KOBBLE CREEK, Queensland, Australia",Flooded,2020/02/26 05:00:00+00
-27.1793606,152.9607004,"Leonard Court, BURPENGARY, Queensland, Australia",Flooded,2020/02/26 05:00:00+00
-27.2019261,152.8215123,"Morris Street, DAYBORO, Queensland, Australia",Flooded,2020/02/26 05:00:00+00
-27.1449495,152.7628808,"Mount Brisbane Road, MOUNT PLEASANT, Queensland, Australia",Flooded,2020/02/26 05:00:00+00
-26.9601864,152.7011968,"Neurum Road, NEURUM, Queensland, Australia",Flooded,2022/05/14 00:30:00+00
-26.9601864,152.7011968,"Neurum Road, NEURUM, Queensland, Australia",Flooded,2020/02/26 05:00:00+00
-26.9974895,152.7638397,"Newman Lane, DELANEYS CREEK, Queensland, Australia",Flooded,2022/05/13 09:30:00+00
-27.0115069,152.8573442,"O'Shea Road, BRACALBA, Queensland, Australia",Flooded,2020/02/26 05:00:00+00
-26.9309928,152.7715763,"Old Cove Road, WOODFORD, Queensland, Australia",Flooded,2020/02/26 05:00:00+00
-27.0009252,152.9212522,"Old Gympie Road, ELIMBAH, Queensland, Australia",Flooded,2022/05/12 04:00:00+00
-27.1816296,152.95997,"Osborne Drive, BURPENGARY, Queensland, Australia",Flooded,2022/02/26 10:15:00+00
-27.0054282,152.8889379,"Powell Road, WAMURAN, Queensland, Australia",Flooded,2022/05/14 02:00:00+00
-27.0054282,152.8889379,"Powell Road, WAMURAN, Queensland, Australia",Flooded,2022/05/14 02:00:00+00
-27.0054282,152.8889379,"Powell Road, WAMURAN, Queensland, Australia",Flooded,2020/02/26 05:00:00+00
-27.2011273,152.8201232,"Rohlf Street, DAYBORO, Queensland, Australia",Flooded,2020/02/26 05:00:00+00
-27.0013578,152.9478981,"Rose Creek Road, ELIMBAH, Queensland, Australia",Flooded,2022/02/27 10:30:00+00
-27.3754047,152.8806467,"School Road, SAMFORD VILLAGE, Queensland, Australia",Flooded,2020/02/26 05:00:00+00
-27.3305414,152.9860896,"Scouts Crossing Road, BRENDALE, Queensland, Australia",Flooded,2020/02/26 05:00:00+00
-27.1841082,152.811801,"Sellin Road, KING SCRUB, Queensland, Australia",Flooded,2020/02/26 05:00:00+00
-22.575197,144.0847926,"Stoney Creek Road, STONY CREEK, Queensland, Australia",Flooded,2020/02/26 05:00:00+00
-27.2086422,152.8356761,"Strong Road, DAYBORO, Queensland, Australia",Flooded,2022/02/28 06:00:00+00
-27.3666075,152.9791964,"Sunningdale Court, ALBANY CREEK, Queensland, Australia",Flooded,2020/02/26 05:00:00+00
-27.4011999,152.8515709,"Upper Wights Mountain Road, WIGHTS MOUNTAIN, Queensland, Australia",Flooded,2020/02/26 05:00:00+00
-27.0260246,152.9628819,"Wests Road, ELIMBAH, Queensland, Australia",Flooded,2020/02/26 05:00:00+00
-27.0513744,152.9116237,"Williams Road, MOODLU, Queensland, Australia",Flooded,2022/10/23 17:10:00+00
-27.2871657,152.8584907,"Winn Road, MOUNT SAMSON, Queensland, Australia",Flooded,2020/02/26 05:00:00+00
-27.391869,152.8941357,"Camp Mountain Road, CAMP MOUNTAIN, Queensland, Australia",Flooded,2022/02/25 18:15:00+00
-27.0592931,152.9158797,"Cayenne Road, MOODLU, Queensland, Australia",Flooded,2020/02/26 05:00:00+00
-27.3664109,152.980864,"Country Club Drive, ALBANY CREEK, Queensland, Australia",Flooded,2020/02/26 05:00:00+00
-27.2439307,153.0033735,"Duffield Road, KALLANGUR, Queensland, Australia",Flooded,2020/02/26 05:00:00+00
-27.1341819,153.0011394,"Farry Road, BURPENGARY EAST, Queensland, Australia",Flooded,2022/02/28 03:30:00+00
-27.3437287,152.9681556,"Ferguson Street, ALBANY CREEK, Queensland, Australia",Flooded,2020/02/26 05:00:00+00
-27.2690974,153.0298322,"Henry Road, GRIFFIN, Queensland, Australia",Flooded,2022/10/23 22:45:00+00
-26.8813277,152.78715,"Kilcoy-Beerwah Road, STANMORE, Queensland, Australia",Flooded,2022/05/14 05:45:00+00
-27.0009882,152.8010055,"Keliher Road, DELANEYS CREEK, Queensland, Australia",Flooded,2020/02/26 05:00:00+00
-27.3339303,152.9415125,"Kimberley Court, EATONS HILL, Queensland, Australia",Flooded,2020/02/26 05:00:00+00
-27.3112959,152.9506408,"Kremzow Road, WARNER, Queensland, Australia",Flooded,2020/02/26 05:00:00+00
-27.1341805,152.9602652,"Lindsay Road, MORAYFIELD, Queensland, Australia",Flooded,2020/02/26 05:00:00+00
-27.025734,152.9605268,"Mansfield Road, ELIMBAH, Queensland, Australia",Flooded,2020/02/26 05:00:00+00
-27.320794,152.8591818,"Marshall Lane, CLOSEBURN, Queensland, Australia",Flooded,2020/02/26 05:00:00+00
-27.0125187,152.8736945,"Newlands Road, WAMURAN, Queensland, Australia",Flooded,2022/05/12 15:30:00+00
-27.3557158,152.936063,"Allen Road, BUNYA, Queensland, Australia",Flooded,2020/02/26 05:00:00+00
-27.3317085,152.9052407,"Branch Creek Road, CLEAR MOUNTAIN, Queensland, Australia",Flooded,2020/02/26 05:00:00+00
-27.3660116,152.930272,"Bunya Road, BUNYA, Queensland, Australia",Flooded,2020/02/26 05:00:00+00
-27.3265346,152.9036211,"Buranda Road, CLEAR MOUNTAIN, Queensland, Australia",Flooded,2020/02/26 05:00:00+00
-27.0145911,153.0445825,"Donnybrook Road, DONNYBROOK, Queensland, Australia",Flooded,2022/03/03 04:00:00+00
-27.2439307,153.0033735,"Duffield Road, KALLANGUR, Queensland, Australia",Flooded,2020/02/26 05:00:00+00
-27.3638594,152.8761703,"Gibbons Road, SAMFORD VALLEY, Queensland, Australia",Flooded,2020/02/26 05:00:00+00
-27.3053161,152.9265994,"Ira Buckby Road West, CASHMERE, Queensland, Australia",Flooded,2020/02/26 05:00:00+00
-27.2976617,152.9749883,"Kensington Way, STRATHPINE, Queensland, Australia",Flooded,2022/02/27 16:30:00+00
-27.3179441,152.9369122,"Lilley Road, WARNER, Queensland, Australia",Flooded,2020/02/26 05:00:00+00
-27.2128191,152.8324267,"Mount Samson Road, DAYBORO, Queensland, Australia",Flooded,2022/02/26 17:15:00+00
-27.1364267,152.9209849,"Nairn Road, MORAYFIELD, Queensland, Australia",Flooded,2022/03/14 04:00:00+00
-27.1847522,152.9832064,"Old Gympie Road, NARANGBA, Queensland, Australia",Flooded,2020/02/26 05:00:00+00
-27.2128191,152.8324267,"Mount Samson Road, DAYBORO, Queensland, Australia",Flooded,2022/02/27 12:30:00+00
-27.3055678,152.9644248,"Old North Cresent, STRATHPINE, Queensland, Australia",Flooded,2020/02/26 05:00:00+00
-27.3375262,152.949993,"Queen Elizabeth Drive, EATONS HILL, Queensland, Australia",Flooded,2020/02/26 05:00:00+00
-27.2455829,153.0309582,"Topaz Drive, MANGO HILL, Queensland, Australia",Flooded,2020/02/26 05:00:00+00
-27.1023254,152.9802122,"Trafalger Drive, MORAYFIELD, Queensland, Australia",Flooded,2020/02/26 05:00:00+00
-27.3658014,152.8843672,"Warwick Lane, SAMFORD VALLEY, Queensland, Australia",Flooded,2020/02/26 05:00:00+00
-27.053973,152.9438738,"Porter Road, CABOOLTURE, Queensland, Australia",Flooded,2020/02/26 05:00:00+00
-27.2585802,152.9654075,"Frenchs Road, PETRIE, Queensland, Australia",Flooded,2020/02/26 05:00:00+00
-27.1139322,152.9600547,"Glenwood Drive, MORAYFIELD, Queensland, Australia",Flooded,2020/02/26 05:00:00+00
-27.1894658,153.015587,"Deception Bay Road, DECEPTION BAY, Queensland, Australia",Flooded,2020/02/26 05:00:00+00
-27.1608227,152.9405775,"Rowley Road, BURPENGARY, Queensland, Australia",Flooded,2022/05/13 03:30:00+00
-27.0505198,152.9375938,"Old Gympie Road, CABOOLTURE, Queensland, Australia",Flooded,2020/02/26 05:00:00+00
-27.2098727,152.9379826,"Browns Road, KURWONGBAH, Queensland, Australia",Flooded,2020/02/26 05:00:00+00
-27.0330921,152.9474874,"Hamilton Road, ELIMBAH, Queensland, Australia",Flooded,2020/02/26 05:00:00+00
-27.123594,152.9587188,"Morayfield Road, MORAYFIELD, Queensland, Australia",Flooded,2020/02/26 05:00:00+00
-27.3229339,152.9534069,"Warner Road, WARNER, Queensland, Australia",Flooded,2020/02/26 05:00:00+00
-27.1559714,152.9803327,"Arthur Drewett Drive Overpass, BURPENGARY EAST, Queensland, Australia",Flooded,2020/02/26 05:00:00+00
-27.0586598,152.9665746,"Male Road, CABOOLTURE, Queensland, Australia",Flooded,2020/02/26 05:00:00+00
-27.3117705,152.9894245,"South Pine Road, BRENDALE, Queensland, Australia",Flooded,2020/02/26 05:00:00+00
-27.1108742,152.9378812,"Walkers Road, MORAYFIELD, Queensland, Australia",Flooded,2022/02/26 10:15:00+00
-27.0632327,153.1537164,"Faraday Street, BELLARA, Queensland, Australia",Flooded,2020/02/26 05:00:00+00
-27.1029394,152.9517829,"William Berry Drive, MORAYFIELD, Queensland, Australia",Flooded,2022/02/28 19:00:00+00
-27.1462708,152.871324,"Moorina Road, MOORINA, Queensland, Australia",Flooded,2022/02/27 15:30:00+00
-27.0611315,153.1425867,"Sylvan Beach Esplanade, BELLARA, Queensland, Australia",Flooded,2020/02/26 05:00:00+00
-26.9933811,152.9077003,"Williams Road, WAMURAN, Queensland, Australia",Flooded,2020/02/26 05:00:00+00
-27.1111252,153.0272773,"Beachmere Road, BEACHMERE, Queensland, Australia",Flooded,2022/03/03 03:50:00+00
-27.0771814,153.0053223,"Bribie Island Road, CABOOLTURE, Queensland, Australia",Flooded,2022/02/28 04:20:00+00
-27.0771814,153.0053223,"Bribie Island Road, CABOOLTURE, Queensland, Australia",Flooded,2022/02/28 04:20:00+00
-27.3029505,152.9887048,"Gympie Road, STRATHPINE, Queensland, Australia",Flooded,2022/05/14 16:15:00+00
-27.1714052,152.9807341,"Old Gympie Road, BURPENGARY, Queensland, Australia",Flooded,2020/02/26 05:00:00+00
-27.1892217,152.9867347,"Bruce Highway, DECEPTION BAY, Queensland, Australia",Flooded,2020/02/26 05:00:00+00
-27.1894658,153.015587,"Deception Bay Road, DECEPTION BAY, Queensland, Australia",Flooded,2020/02/26 05:00:00+00
-27.0956744,152.9987362,"Beachmere Road, CABOOLTURE, Queensland, Australia",Flooded,2020/02/26 05:00:00+00
-27.1531487,152.9777779,"Bruce Highway, BURPENGARY, Queensland, Australia",Flooded,2020/02/26 05:00:00+00
-27.2742802,152.9815009,"Gympie Road, PETRIE, Queensland, Australia",Flooded,2022/02/28 07:20:00+00
-27.058975,152.7752051,"Mt Mee Road, MOUNT MEE, Queensland, Australia",Flooded,2020/02/26 05:00:00+00
-27.1111252,153.0272773,"Beachmere Road, BEACHMERE, Queensland, Australia",Flooded,2022/03/03 03:50:00+00
-27.0677154,153.1302294,"Bribie Island Road, SANDSTONE POINT, Queensland, Australia",Flooded,2020/02/26 05:00:00+00
-27.1894658,153.015587,"Deception Bay Road, DECEPTION BAY, Queensland, Australia",Flooded,2021/11/30 18:15:00+00
-27.1384245,152.9680582,"Morayfield Road, BURPENGARY, Queensland, Australia",Flooded,2022/03/01 09:15:00+00
-27.1714052,152.9807341,"Old Gympie Road, BURPENGARY, Queensland, Australia",Flooded,2020/02/26 05:00:00+00
-27.1714052,152.9807341,"Old Gympie Road, BURPENGARY, Queensland, Australia",Flooded,2020/02/26 05:00:00+00
-27.3791087,152.7754445,"Mount Nebo Road, MOUNT NEBO, Queensland, Australia",Flooded,2020/02/26 05:00:00+00
-27.221977,153.041196,"Anzac Avenue, MANGO HILL, Queensland, Australia",Flooded,2022/02/27 22:15:00+00
-27.3601664,152.7868575,"Mount Glorious Road, MOUNT NEBO, Queensland, Australia",Flooded,2020/02/26 05:00:00+00
-27.0662761,152.9775191,"Bruce Highway, CABOOLTURE, Queensland, Australia",Flooded,2020/02/26 05:00:00+00
-27.2414751,152.9190263,"Dayboro Road, WHITESIDE, Queensland, Australia",Flooded,2020/02/26 05:00:00+00
-27.0771814,153.0053223,"Bribie Island Road, CABOOLTURE, Queensland, Australia",Flooded,2020/02/26 05:00:00+00
-27.1894658,153.015587,"Deception Bay Road, DECEPTION BAY, Queensland, Australia",Flooded,2020/02/26 05:00:00+00
-27.0958523,152.9494101,"Morayfield Road, CABOOLTURE, Queensland, Australia",Flooded,2022/02/27 14:00:00+00
-27.001076,152.94709,"Beerburrum Road, ELIMBAH, Queensland, Australia",Flooded,2022/02/27 03:15:00+00
-27.3931576,152.9207606,"Samford Road, FERNY HILLS, Queensland, Australia",Flooded,2020/02/26 05:00:00+00
-27.3029505,152.9887048,"Gympie Road, STRATHPINE, Queensland, Australia",Flooded,2022/02/26 01:45:00+00
-27.123594,152.9587188,"Morayfield Road, MORAYFIELD, Queensland, Australia",Flooded,2021/11/30 09:00:00+00
-27.221977,153.041196,"Anzac Avenue, MANGO HILL, Queensland, Australia",Flooded,2021/03/22 00:45:00+00
-27.1111252,153.0272773,"Beachmere Road, BEACHMERE, Queensland, Australia",Flooded,2022/03/03 03:50:00+00
-27.1384245,152.9680582,"Morayfield Road, BURPENGARY, Queensland, Australia",Flooded,2020/02/26 05:00:00+00
-27.40563,152.7886959,"Mt Glorious (PEI) Rd - Samford to Mt Nebo, MOUNT NEBO, Queensland, Australia",Flooded,2020/02/26 05:00:00+00
-27.239928,153.0845289,"Snook Street, CLONTARF, Queensland, Australia",Flooded,2020/02/26 05:00:00+00
-27.0956744,152.9987362,"Beachmere Road, CABOOLTURE, Queensland, Australia",Flooded,2022/02/28 14:00:00+00
-27.0390994,153.059275,"Pumicestone Road, TOORBUL, Queensland, Australia",Flooded,2022/02/27 21:45:00+00
-26.928465,152.705936,"D'Aguilar Highway, STONY CREEK, Queensland, Australia",Flooded,2020/02/26 05:00:00+00
-27.2431062,153.1071753,"Oxley Avenue, MARGATE, Queensland, Australia",Flooded,2020/02/26 05:00:00+00
-26.9553176,152.7780946,"D'Aguilar Highway, WOODFORD, Queensland, Australia",Flooded,2022/05/15 05:15:00+00
-27.3741559,152.8795494,"Mount Glorious Road, SAMFORD VILLAGE, Queensland, Australia",Flooded,2020/02/26 05:00:00+00
-27.3601664,152.7868575,"Mount Glorious Road, MOUNT NEBO, Queensland, Australia",Flooded,2020/02/26 05:00:00+00
-27.3242799,152.7553522,"Mount Glorious Road, MOUNT GLORIOUS, Queensland, Australia",Flooded,2020/02/26 05:00:00+00
-22.05359,149.4887834,"Bruce Highway, GRIFFIN, Queensland, Australia",Flooded,2022/05/11 11:30:00+00
-27.0662761,152.9775191,"Bruce Highway, CABOOLTURE, Queensland, Australia",Flooded,2020/02/26 05:00:00+00
-27.0754241,153.1563683,"Welsby Parade, BONGAREE, Queensland, Australia",Flooded,2017/11/07 14:00:00+00
-27.1856076,152.9339604,"Oakey Flat Road, NARANGBA, Queensland, Australia",Flooded,2017/11/07 14:00:00+00
-27.283565,152.997926,"Lawnton Pocket Road, LAWNTON, Queensland, Australia",Flooded,2022/03/03 07:00:00+00
-27.1228936,152.9711936,"Grogan Road, MORAYFIELD, Queensland, Australia",Flooded,2017/11/07 14:00:00+00
-27.0950038,152.9593348,"Market Drive, CABOOLTURE SOUTH, Queensland, Australia",Flooded,2017/11/07 14:00:00+00
-27.1057405,152.96399,"Devine Court, MORAYFIELD, Queensland, Australia",Flooded,2017/11/07 14:00:00+00
-27.347522,152.952393,"Birmingham Street, EATONS HILL, Queensland, Australia",Flooded,2017/11/07 14:00:00+00
-27.3868565,152.9554533,"Bunya Road, ARANA HILLS, Queensland, Australia",Flooded,2020/02/26 05:00:00+00
-27.1914782,153.1138404,"Second Avenue, SCARBOROUGH, Queensland, Australia",Flooded,2020/02/26 05:00:00+00
-27.1923718,153.1119202,"Reef Point Esplanade, SCARBOROUGH, Queensland, Australia",Flooded,2020/12/14 01:00:00+00
-27.1922229,153.1127548,"Third Avenue, SCARBOROUGH, Queensland, Australia",Flooded,2020/02/26 05:00:00+00
-27.041566,152.8584146,"Devit Road, WAMURAN, Queensland, Australia",Flooded,2020/02/26 05:00:00+00
-27.2758173,152.9505011,"Youngs Crossing Road, JOYNER, Queensland, Australia",Flooded,2020/02/26 05:00:00+00
-27.2650211,152.9563538,"Youngs Crossing Road, PETRIE, Queensland, Australia",Flooded,2022/10/24 19:50:00+00
-27.313925,152.9495941,"Lowan Street, WARNER, Queensland, Australia",Flooded,2020/02/26 05:00:00+00
-27.0699454,152.9267404,"Del Rosso Road, CABOOLTURE, Queensland, Australia",Flooded,2020/02/26 05:00:00+00
-27.0771814,153.0053223,"Bribie Island Road, CABOOLTURE, Queensland, Australia",Flooded,2020/02/26 00:30:00+00
-27.2265652,153.1103731,"Oxley Ave, REDCLIFFE, Queensland, Australia",Flooded,2020/02/26 01:15:00+00
-27.0754241,153.1563683,"Welsby Parade, BONGAREE, Queensland, Australia",Flooded,2020/12/14 00:45:00+00
-27.1380584,153.0481652,"Kunde Street, BEACHMERE, Queensland, Australia",Flooded,2020/12/14 05:30:00+00
-27.0390994,153.059275,"Pumicestone Road, TOORBUL, Queensland, Australia",Flooded,2020/12/14 07:00:00+00
-27.1768694,152.9582155,"New Settlement Road, NARANGBA, Queensland, Australia",Flooded,2021/03/21 21:30:00+00
-27.1814466,152.9915006,"Tallowwood Drive, DECEPTION BAY, Queensland, Australia",Flooded,2021/03/23 01:45:00+00
-27.2692557,153.0191574,"Goodrich Road East, GRIFFIN, Queensland, Australia",Flooded,2021/03/22 11:00:00+00
-27.1856076,152.9339604,"Oakey Flat Road, NARANGBA, Queensland, Australia",Flooded,2022/02/27 10:00:00+00
-26.9979709,152.8849236,"Hoffman Road, WAMURAN, Queensland, Australia",Flooded,2022/02/27 23:00:00+00
-26.991793,152.775372,"181 Buckingham Road, DELANEYS CREEK, Queensland, Australia",Flooded,2021/12/01 09:00:00+00
-27.0397032,152.8638936,"Lockhart Road, WAMURAN, Queensland, Australia",Flooded,2022/02/27 23:00:00+00
-27.0438588,152.8286573,"R Sampson Road, WAMURAN BASIN, Queensland, Australia",Flooded,2022/02/28 02:00:00+00
-27.1985904,152.7800872,"Rowe Road, LACEYS CREEK, Queensland, Australia",Flooded,2022/03/01 02:45:00+00
-27.2708434,153.0254283,"White Ibis Drive, GRIFFIN, Queensland, Australia",Flooded,2022/02/27 17:45:00+00
-27.001076,152.94709,"Beerburrum Road, ELIMBAH, Queensland, Australia",Flooded,2022/02/27 02:45:00+00
-27.0410453,152.9967399,"Pumicestone Road, CABOOLTURE, Queensland, Australia",Flooded,2022/02/26 16:45:00+00
-27.0681883,152.9609279,"Brown Street, CABOOLTURE, Queensland, Australia",Flooded,2022/02/26 22:30:00+00
-27.2857287,152.9580196,"Aaron Street, BRAY PARK, Queensland, Australia",Flooded,2022/03/03 07:30:00+00
-27.3328381,152.9698793,"Cribb Road, BRENDALE, Queensland, Australia",Flooded,2022/03/03 07:30:00+00
-27.076789,152.948346,"Henzell Road, CABOOLTURE, Queensland, Australia",Flooded,2022/02/26 12:30:00+00
-27.1548829,152.9680287,"Station Road, BURPENGARY, Queensland, Australia",Flooded,2022/02/27 16:30:00+00
-27.2128191,152.8324267,"Mount Samson Road, DAYBORO, Queensland, Australia",Flooded,2022/02/26 14:30:00+00
-27.120011,152.9359512,"Petersen Road, MORAYFIELD, Queensland, Australia",Flooded,2022/02/26 10:45:00+00
-27.1994287,152.8234213,"Bradley Street, DAYBORO, Queensland, Australia",Flooded,2022/02/26 14:30:00+00
-27.0753328,152.9272975,"King Street, CABOOLTURE, Queensland, Australia",Flooded,2022/02/26 19:45:00+00
-27.0545629,152.9480842,"Beerburrum Road, CABOOLTURE, Queensland, Australia",Flooded,2022/02/26 19:45:00+00
-27.0779169,152.9520537,"Railway Parade, CABOOLTURE, Queensland, Australia",Flooded,2022/02/26 19:15:00+00
-27.1139322,152.9600547,"Glenwood Drive, MORAYFIELD, Queensland, Australia",Flooded,2022/02/27 17:30:00+00
-27.2177534,153.087862,"Boardman Road, NEWPORT, Queensland, Australia",Flooded,2022/02/28 03:00:00+00
-26.9553176,152.7780946,"D'Aguilar Highway, WOODFORD, Queensland, Australia",Flooded,2022/02/27 03:15:00+00
-27.001076,152.94709,"Beerburrum Road, ELIMBAH, Queensland, Australia",Flooded,2022/02/27 02:15:00+00
-27.2429619,153.0993579,"Victoria Avenue, MARGATE, Queensland, Australia",Flooded,2022/02/27 15:15:00+00
-27.2067521,153.028109,"Major Street, DECEPTION BAY, Queensland, Australia",Flooded,2022/02/28 02:30:00+00
-27.2067521,153.028109,"Major Street, DECEPTION BAY, Queensland, Australia",Flooded,2022/02/28 02:30:00+00
-27.2053517,153.0295825,"Embassy Street, DECEPTION BAY, Queensland, Australia",Flooded,2022/02/28 02:30:00+00
-27.3004868,152.9672097,"199 Samsonvale Road, BRAY PARK, Queensland, Australia",Flooded,2022/02/27 16:45:00+00
-27.0918767,153.1663951,"Spowers Street, BONGAREE, Queensland, Australia",Flooded,2022/02/28 06:30:00+00
-27.0918767,153.1663951,"Spowers Street, BONGAREE, Queensland, Australia",Flooded,2022/02/27 22:00:00+00
-27.0679726,153.1551782,"Wattle Avenue, BONGAREE, Queensland, Australia",Flooded,2022/02/26 20:30:00+00
-27.1154311,152.9728675,"Coach Road West, MORAYFIELD, Queensland, Australia",Flooded,2022/02/27 15:00:00+00
-26.9827304,152.7173912,"Perkins Road, NEURUM, Queensland, Australia",Flooded,2022/05/12 11:30:00+00
-27.0651142,152.8696077,"Old North Road, WAMURAN, Queensland, Australia",Flooded,2022/05/12 15:45:00+00
-26.981004,152.8795386,"Prosser Road, WAMURAN, Queensland, Australia",Flooded,2022/02/27 23:00:00+00
-27.3791087,152.7754445,"Mount Nebo Road, MOUNT NEBO, Queensland, Australia",Flooded,2022/03/02 05:30:00+00
-27.0850891,153.1612966,"Foster Street, BONGAREE, Queensland, Australia",Flooded,2022/03/07 06:30:00+00
-27.0405621,153.0968276,"Freeman Road, TOORBUL, Queensland, Australia",Flooded,2022/03/01 01:00:00+00
-26.9580712,152.6932709,"Morrison Road, NEURUM, Queensland, Australia",Flooded,2022/03/03 03:25:00+00
-26.805375,152.7926068,"Postman's Track, BOOROOBIN, Queensland, Australia",Flooded,2022/03/05 04:15:00+00
-26.8508516,152.789862,"Nonmus Road, BELLTHORPE, Queensland, Australia",Flooded,2022/03/04 02:35:00+00
-27.0782571,153.1578571,"63 Welsby Parade, BONGAREE, Queensland, Australia",Flooded,2022/03/03 05:20:00+00
-27.0635893,153.1442073,"Marine Parade, BELLARA, Queensland, Australia",Flooded,2022/03/03 05:40:00+00
-27.0807036,153.1594021,"Fourth Avenue, BONGAREE, Queensland, Australia",Flooded,
-27.3029505,152.9887048,"Gympie Road, STRATHPINE, Queensland, Australia",Flooded,2022/03/04 07:00:00+00
-26.9939506,152.719236,"Whyte Road, NEURUM, Queensland, Australia",Flooded,2022/03/05 08:15:00+00
-27.002273,152.8687132,"McClintock Road, WAMURAN, Queensland, Australia",Flooded,2022/03/05 06:30:00+00
-27.2191864,153.0296383,"Mary Street East, MANGO HILL, Queensland, Australia",Flooded,2022/05/14 21:30:00+00
-26.9954068,152.7808103,"Hennessey Road DELANEYS CREEK, DELANEYS CREEK, Queensland, Australia",Flooded,2022/05/11 17:30:00+00
-26.9414311,152.7621503,"Canando Street, WOODFORD, Queensland, Australia",Flooded,2022/05/13 11:00:00+00
